City_ID,City,Country,Date,Max Temp,Cloudiness,Wind Speed,Humidity,Lng,Lat
0,Hermanus,ZA,1651350334,14.96,79,1.34,86,19.2345,-34.4187
1,Impfondo,CG,1651350335,24.32,12,0.8,68,18.0667,1.6381
2,Rikitea,PF,1651350335,24.4,51,5.43,76,-134.9692,-23.1203
3,Port Alfred,ZA,1651350336,13.99,1,0.89,83,26.891,-33.5906
4,Emba,KZ,1651350336,13.82,100,7.65,66,58.1442,48.8264
5,San Patricio,US,1651350135,30.05,95,7.33,62,-97.5169,28.017
6,Qian’an,CN,1651350337,2.39,97,3.08,53,124.0581,44.9932
7,Klaksvík,FO,1651350203,6.51,25,3.77,88,-6.589,62.2266
8,Kavaratti,IN,1651350338,29.41,48,4.59,72,72.642,10.5669
9,Punta Arenas,CL,1651350147,6.06,40,4.12,81,-70.9167,-53.15
10,Plouzané,FR,1651350338,10.03,0,3.09,87,-4.6167,48.3833
11,Varzelândia,BR,1651350339,28.89,73,1.65,29,-44.0275,-15.7014
12,Aswān,EG,1651350116,32.61,0,3.6,10,32.907,24.0934
13,Cabo San Lucas,MX,1651350288,30.34,40,3.6,41,-109.9124,22.8909
14,Torbay,CA,1651350340,7.09,100,2.06,96,-52.7314,47.6666
15,Castro,BR,1651350340,19.64,43,0.47,86,-50.0119,-24.7911
16,Provideniya,RU,1651350341,-0.72,100,7.03,91,-173.3,64.3833
17,Neuquén,AR,1651350290,18.94,0,3.6,26,-68.0591,-38.9516
18,Atuona,PF,1651350083,26.05,7,5.98,76,-139.0333,-9.8
19,Saskylakh,RU,1651350342,-11.82,100,7.32,93,114.0833,71.9167
20,Naze,JP,1651350342,17.51,100,5.78,75,129.4833,28.3667
21,Qaanaaq,GL,1651350086,-8.59,89,1.9,76,-69.3632,77.484
22,Dakar,SN,1651350239,22.49,0,3.09,88,-17.4441,14.6937
23,Metro,ID,1651350343,23.87,98,2.03,93,105.3067,-5.1131
24,Ponta do Sol,PT,1651350060,19.28,0,0.97,69,-17.1,32.6667
25,Saint-Philippe,RE,1651350344,24.77,9,5.13,79,55.7679,-21.3585
26,Busselton,AU,1651350345,12.77,0,2.6,87,115.3333,-33.65
27,Lüderitz,NA,1651350345,14.89,0,7.69,66,15.1594,-26.6481
28,Pusad,IN,1651350346,33.96,5,5.1,16,77.5833,19.9
29,Ancud,CL,1651350346,11.11,100,3.08,80,-73.8203,-41.8697
30,Tabou,CI,1651350092,27.27,100,3.3,79,-7.3528,4.423
31,Ankara,TR,1651350220,13.66,75,5.14,70,32.8543,39.9199
32,Butaritari,KI,1651350083,27.12,74,6.14,82,172.7902,3.0707
33,Codrington,AU,1651350347,14.23,100,6.04,83,141.9667,-38.2667
34,Geraldton,AU,1651350348,12.23,0,4.63,76,114.6,-28.7667
35,Arraial do Cabo,BR,1651350348,23.92,75,4.12,83,-42.0278,-22.9661
36,São Gabriel da Cachoeira,BR,1651350349,27.04,63,1.29,88,-67.0892,-0.1303
37,Carnarvon,AU,1651350091,17.04,0,4.12,59,113.6333,-24.8667
38,Guerrero Negro,MX,1651350349,20.26,80,6.83,57,-114.0611,27.9769
39,Ushuaia,AR,1651350102,5.81,0,0.0,81,-68.3,-54.8
40,Itaqui,BR,1651350350,16.14,98,4.84,83,-56.5531,-29.1253
41,Denpasar,ID,1651350351,25.81,20,2.57,94,115.2167,-8.65
42,Avarua,CK,1651350351,28.03,20,4.63,78,-159.775,-21.2078
43,Lompoc,US,1651350352,26.46,0,11.18,61,-120.4579,34.6391
44,Ruteng,ID,1651350352,16.99,100,0.61,88,120.4721,-8.6136
45,Solnechnyy,RU,1651350353,-3.26,51,2.48,85,136.6319,50.7214
46,Smidovich,RU,1651350248,3.49,100,9.04,57,133.8167,48.6
47,Albany,US,1651350353,17.92,89,3.19,24,-73.9662,42.6001
48,Chokurdakh,RU,1651350354,-10.8,31,3.55,94,147.9167,70.6333
49,Longyearbyen,SJ,1651350354,-11.09,0,4.12,62,15.6401,78.2186
50,Airai,TL,1651350355,15.37,87,1.35,84,125.4092,-8.9266
51,Tasiilaq,GL,1651350355,5.09,10,0.25,63,-37.6368,65.6145
52,Vila Franca do Campo,PT,1651350356,17.23,16,1.83,80,-25.4333,37.7167
53,Batemans Bay,AU,1651350356,12.83,41,1.65,73,150.1833,-35.7167
54,Kabompo,ZM,1651350357,15.28,3,1.91,72,24.2008,-13.5927
55,Luohe,CN,1651350357,10.07,100,1.82,52,114.0353,33.5717
56,Puerto Ayora,EC,1651350182,26.98,89,3.89,78,-90.3518,-0.7393
57,Yumen,CN,1651350358,7.39,0,1.58,30,97.2,40.2833
58,Dikson,RU,1651350359,-8.65,100,8.29,94,80.5464,73.5069
59,Saint George,US,1651350260,27.66,0,1.34,13,-113.5841,37.1041
60,Tuburan,PH,1651350359,27.2,100,0.22,80,122.2736,6.6439
61,Kattivākkam,IN,1651350360,30.05,0,5.75,91,80.3167,13.2167
62,Roald,NO,1651350177,8.2,0,2.06,76,6.1333,62.5833
63,Barrow,US,1651350360,-6.99,20,4.12,86,-156.7887,71.2906
64,Kerema,PG,1651350361,24.92,94,2.1,86,145.7785,-7.9631
65,Smirnykh,RU,1651350362,-1.48,62,1.58,89,142.8333,49.75
66,Eyl,SO,1651350362,28.95,40,3.77,75,49.8164,7.9803
67,Chemodanovka,RU,1651350363,3.56,24,3.14,79,45.2474,53.2316
68,Ust'-Barguzin,RU,1651350257,1.34,98,1.49,98,108.9833,53.45
69,Kaitangata,NZ,1651350112,10.18,100,2.6,84,169.8464,-46.2817
70,Mataura,NZ,1651350092,17.49,100,1.7,86,168.8643,-46.1927
71,Cherskiy,RU,1651350364,-12.33,80,2.07,93,161.3,68.75
72,Cidreira,BR,1651350078,18.86,100,4.4,70,-50.2056,-30.1811
73,Ayan,RU,1651350364,0.12,100,3.1,93,138.1667,56.45
74,Tuatapere,NZ,1651350365,14.66,100,5.41,75,167.6833,-46.1333
75,Coquimbo,CL,1651349817,14.85,0,4.63,77,-71.3436,-29.9533
76,Iqaluit,CA,1651350126,-4.15,75,4.63,79,-68.5145,63.7506
77,Jieshi,CN,1651350366,23.3,100,7.21,91,115.8257,22.8134
78,Kapaa,US,1651350366,25.99,75,8.75,77,-159.319,22.0752
79,Okhotsk,RU,1651350367,-0.04,50,3.03,90,143.3,59.3833
80,East London,ZA,1651350368,17.16,0,5.65,71,27.9116,-33.0153
81,Myskhako,RU,1651350368,13.79,99,6.03,87,37.7433,44.6714
82,Hilo,US,1651350369,25.71,100,4.63,87,-155.09,19.7297
83,Tarazá,CO,1651350369,30.44,99,1.47,75,-75.4007,7.5836
84,Bambous Virieux,MU,1651350370,25.14,40,3.6,83,57.7575,-20.3428
85,Ostrovnoy,RU,1651350370,-7.58,93,4.65,83,39.5131,68.0531
86,Lagoa,PT,1651350185,16.1,0,4.7,87,-27.9833,39.05
87,Tiznit Province,MA,1651350356,21.12,0,1.97,36,-9.5,29.5833
88,George Town,MY,1651350211,27.96,20,1.54,93,100.3354,5.4112
89,Fortuna,US,1651350371,14.25,100,4.63,89,-124.1573,40.5982
90,Whitianga,NZ,1651350372,15.79,50,3.6,84,175.7,-36.8333
91,Magadan,RU,1651350372,-0.26,11,2.74,73,150.8,59.5667
92,Jinchang,CN,1651350373,6.87,75,2.35,42,102.1739,38.4953
93,Domoni,KM,1651350373,26.28,81,3.93,86,44.5319,-12.2569
94,Bredasdorp,ZA,1651350081,13.35,11,2.45,86,20.0403,-34.5322
95,Oranjemund,NA,1651350374,13.13,0,6.22,87,16.4333,-28.55
96,Yellowknife,CA,1651350260,2.29,0,4.12,51,-114.3525,62.456
97,Aquiraz,BR,1651350375,29.05,30,2.37,80,-38.3911,-3.9014
98,Kalabo,ZM,1651350376,17.72,0,2.26,50,22.6814,-14.97
99,Morant Bay,JM,1651350300,29.84,30,5.41,71,-76.4093,17.8815
100,Ilulissat,GL,1651350340,-3.99,0,7.2,46,-51.1,69.2167
101,Alexandria,EG,1651350377,17.98,0,4.12,68,29.9553,31.2156
102,Kaihua,CN,1651350377,13.81,100,4.91,87,104.28,23.3687
103,Mahébourg,MU,1651350278,25.16,40,3.6,83,57.7,-20.4081
104,Mar del Plata,AR,1651349769,13.82,0,5.66,56,-57.5575,-38.0023
105,Pekalongan,ID,1651350378,26.73,100,2.51,81,109.6753,-6.8886
106,Lichinga,MZ,1651350379,17.05,20,2.57,88,35.2406,-13.3128
107,Zhigansk,RU,1651350379,-0.66,100,14.29,97,123.3711,66.7697
108,Ambunti,PG,1651350380,22.76,100,0.25,99,142.8448,-4.2365
109,Khandyga,RU,1651350380,-6.59,63,1.49,96,135.6,62.6667
110,Polson,US,1651350381,13.05,100,1.98,64,-114.1632,47.6936
111,Pangnirtung,CA,1651350347,-3.53,100,2.19,91,-65.7125,66.1451
112,Caravelas,BR,1651350382,24.92,2,2.11,74,-39.2481,-17.7125
113,Hobart,AU,1651350117,14.92,75,4.12,63,147.3294,-42.8794
114,Richards Bay,ZA,1651350266,18.97,9,4.19,77,32.0377,-28.783
115,Gushikawa,JP,1651350383,21.57,100,3.09,80,127.8686,26.3544
116,Saint Paul Harbor,US,1651350255,3.73,100,15.95,93,-152.4072,57.79
117,Nome,US,1651350090,9.04,0,2.57,43,-165.4064,64.5011
118,Alofi,NU,1651350384,24.94,94,1.54,94,-169.9187,-19.0595
119,Opuwo,NA,1651350331,22.92,49,2.54,38,13.84,-18.0607
120,Juan de Ayolas,PY,1651350384,22.23,100,1.85,78,-56.9,-27.4
121,Celestún,MX,1651350385,28.67,27,5.38,69,-90.4,20.8667
122,Xichang,CN,1651350385,8.53,100,3.38,90,102.2634,27.8964
123,Klyuchi,RU,1651350386,16.13,72,3.87,32,79.1667,52.2667
124,Nara,JP,1651350386,14.72,100,0.65,86,135.8049,34.6851
125,Coyhaique,CL,1651350387,10.97,75,3.09,71,-72.0662,-45.5752
126,Saldanha,ZA,1651350387,13.03,8,5.43,87,17.9442,-33.0117
127,Kodīnar,IN,1651350388,27.77,0,5.45,82,70.7031,20.7903
128,Margate,GB,1651350295,9.61,100,0.45,75,1.3862,51.3813
129,Koulamoutou,GA,1651350388,23.25,99,1.14,91,12.4736,-1.1303
130,Kondinskoye,RU,1651350239,0.05,10,2.7,60,67.41,59.6481
131,Domanivka,UA,1651350389,10.25,73,2.03,69,30.9885,47.6319
132,Bluff,NZ,1651350114,17.67,100,6.28,66,168.3333,-46.6
133,Tuktoyaktuk,CA,1651350390,0.0,20,4.12,74,-133.0374,69.4541
134,Broken Hill,AU,1651350354,9.84,0,2.06,81,141.4333,-31.95
135,Midland,US,1651350222,28.92,0,6.69,16,-102.0779,31.9974
136,Bengkulu,ID,1651350135,24.55,86,2.32,88,102.2655,-3.8004
137,Abu Kamal,SY,1651350391,25.69,76,5.91,37,40.9171,34.4506
138,Aasiaat,GL,1651350392,-6.33,4,5.55,75,-52.8699,68.7098
139,Port Hardy,CA,1651350392,13.1,40,3.6,67,-127.4199,50.6996
140,Estelle,US,1651350393,31.11,40,5.66,53,-90.1067,29.8458
141,Qarchī Gak,AF,1651350393,29.48,100,4.76,25,66.7889,37.04
142,Buala,SB,1651350394,26.59,100,0.63,80,159.5921,-8.145
143,Khorinsk,RU,1651350394,7.26,100,1.64,81,109.7726,52.1657
144,Karratha,AU,1651350202,24.26,88,5.59,52,116.8463,-20.7377
145,Clyde River,CA,1651350395,-8.87,100,1.54,86,-68.5914,70.4692
146,Cape Town,ZA,1651350395,15.51,0,2.57,80,18.4232,-33.9258
147,Mariental,NA,1651350396,18.33,0,6.02,21,17.9667,-24.6333
148,Ribeira Grande,PT,1651350396,18.22,20,4.12,77,-28.7,38.5167
149,Hōfu,JP,1651350397,12.87,100,1.34,75,131.5667,34.05
150,New Norfolk,AU,1651350397,14.72,100,1.79,67,147.0587,-42.7826
151,San Cristobal,VE,1651350253,29.1,100,2.9,82,-72.225,7.7669
152,Shakawe,BW,1651350398,20.95,78,2.18,41,21.85,-18.3667
153,Bathurst,AU,1651350399,6.01,1,1.03,89,149.5806,-33.4166
154,Laredo,US,1651350113,32.16,100,5.14,55,-99.5075,27.5064
155,Norman Wells,CA,1651350399,7.02,0,5.14,49,-126.8329,65.282
156,Trincomalee,LK,1651350400,28.04,15,6.27,81,81.2335,8.5711
157,Mabaruma,GY,1651350401,29.46,98,3.86,62,-59.7833,8.2
158,Buckeye,US,1651350401,35.29,46,2.19,6,-112.5838,33.3703
159,Yulara,AU,1651350402,15.91,40,5.14,55,130.9889,-25.2406
160,Ponta Delgada,PT,1651350402,17.4,20,4.12,88,-25.6667,37.7333
161,Nelson Bay,AU,1651350403,14.49,43,4.55,92,152.15,-32.7167
162,Bethel,US,1651350208,18.11,0,4.12,33,-73.414,41.3712
163,Mahon,ES,1651350403,16.31,0,1.54,72,4.2658,39.8885
164,Asău,RO,1651350404,6.64,68,1.28,96,26.4,46.4333
165,Bijāwar,IN,1651350404,32.43,0,1.9,17,79.5,24.6333
166,Lata,PT,1651350405,13.86,1,1.45,76,-8.3327,40.1629
167,Rabo de Peixe,PT,1651350405,16.73,20,4.12,88,-25.5833,37.8
168,Vestmannaeyjar,IS,1651350406,8.06,25,8.15,85,-20.2734,63.4427
169,Constitución,CL,1651350345,15.67,2,6.73,52,-72.4167,-35.3333
170,Batagay-Alyta,RU,1651350406,-16.51,9,2.1,87,130.4114,67.8006
171,Noumea,NC,1651349980,24.44,74,4.78,99,166.4572,-22.2763
172,Wasilla,US,1651350407,9.09,0,2.57,55,-149.4394,61.5814
173,Tari,NG,1651350408,34.61,97,4.31,28,4.4914,12.4086
174,Portland,US,1651350044,14.18,75,4.63,79,-122.6762,45.5234
175,Province of Vibo Valentia,IT,1651350409,12.33,99,1.3,73,16.1274,38.6996
176,Xai-Xai,MZ,1651350409,22.83,99,8.63,78,33.6442,-25.0519
177,Venado Tuerto,AR,1651350267,15.98,88,3.83,31,-61.9688,-33.7456
178,Aksu,CN,1651350410,16.75,100,2.4,19,80.2644,41.1231
179,Shīeli,KZ,1651350411,23.7,100,2.44,21,66.75,44.1667
180,Labuhan,ID,1651350411,26.24,100,3.8,89,112.2051,-6.8844
181,Bay Roberts,CA,1651350412,7.51,100,1.79,94,-53.2648,47.5999
182,Bariloche,AR,1651350412,9.86,75,3.09,62,-71.3082,-41.1456
183,Māngrol,IN,1651350413,28.1,0,5.37,84,70.1167,21.1167
184,Lahaina,US,1651350249,26.58,100,4.62,84,-156.6825,20.8783
185,Lebu,CL,1651350413,12.2,2,6.83,65,-73.65,-37.6167
186,Jamestown,US,1651350414,19.73,0,3.09,21,-79.2353,42.097
187,Rāyagada,IN,1651350414,27.07,70,1.46,79,83.4167,19.1667
188,Lexington Park,US,1651350367,20.03,100,3.6,28,-76.4538,38.2668
189,Vaini,TO,1651350415,25.09,100,4.12,94,-175.2,-21.2
190,Nishihara,JP,1651350416,21.6,100,3.09,81,127.7558,26.1842
191,Hithadhoo,MV,1651350175,29.62,100,6.55,68,73.0833,-0.6
192,Rønne,DK,1651350417,6.95,98,1.54,93,14.7066,55.1009
193,Tautira,PF,1651350191,26.62,58,6.41,75,-149.15,-17.7333
194,Horta,PT,1651350417,17.8,20,4.12,77,-28.6333,38.5333
195,Alice Springs,AU,1651350319,14.75,75,3.09,67,133.8833,-23.7
196,Comitancillo,GT,1651350418,20.93,61,1.12,70,-91.7167,15.0833
197,Podgornoye,RU,1651350418,6.12,0,3.0,52,39.1496,51.735
198,Mahrīz,IR,1651350419,15.28,22,0.56,65,54.4318,31.5917
199,Fort-Shevchenko,KZ,1651350419,14.06,2,8.37,87,50.263,44.5086
200,La Arena,PE,1651350420,30.66,75,5.7,40,-80.7109,-5.3466
201,Los Llanos de Aridane,ES,1651350420,17.86,20,6.69,82,-17.9182,28.6585
202,Mayo,US,1651350267,22.23,0,4.47,32,-76.5119,38.8876
203,Karasburg,NA,1651350421,14.33,0,3.18,23,18.75,-28.0167
204,Sur,OM,1651350422,31.57,90,1.64,53,59.5289,22.5667
205,Farah,AF,1651350422,27.96,100,1.06,14,62.5,32.5
206,Byron Bay,AU,1651350164,17.94,100,5.1,88,153.6167,-28.65
207,Dzaoudzi,YT,1651350423,26.94,75,2.57,83,45.2699,-12.7887
208,Indianola,US,1651350424,12.27,100,9.69,77,-93.5574,41.3581
209,Yatou,CN,1651350424,7.62,38,3.51,33,122.3833,37.15
210,Bayanday,RU,1651350425,8.51,100,1.91,87,105.5139,53.0661
211,Lázaro Cárdenas,MX,1651350332,28.78,38,4.58,52,-102.2,17.9583
212,Thompson,CA,1651350425,6.09,100,5.14,56,-97.8558,55.7435
213,Lubbock,US,1651350152,25.77,20,2.57,14,-101.8338,33.6001
214,College,US,1651350426,12.27,75,4.12,35,-147.8028,64.8569
215,Barranca,PE,1651350427,20.96,59,4.04,75,-77.7667,-10.75
216,Avera,US,1651350427,28.08,7,3.09,40,-82.5271,33.194
217,Beyneu,KZ,1651350428,18.0,46,4.36,74,55.2,45.3167
218,Fort Nelson,CA,1651350428,7.77,40,4.12,42,-122.7002,58.8053
219,Kwinana,AU,1651350429,13.23,0,2.34,82,115.7667,-32.25
220,Kushima,JP,1651349849,15.82,100,2.0,82,131.2333,31.4583
221,San Luis,AR,1651350429,19.25,0,0.68,34,-66.3356,-33.295
222,São Filipe,CV,1651350430,22.41,83,3.76,75,-24.4956,14.8961
223,Charters Towers,AU,1651350420,19.47,0,3.21,82,146.2667,-20.1
224,Kavieng,PG,1651350431,27.45,100,1.42,75,150.7967,-2.5744
225,Keetmanshoop,NA,1651350431,17.3,0,4.77,21,18.1333,-26.5833
226,Ormstown,CA,1651350432,16.06,97,1.86,46,-73.9992,45.1334
227,Sinnamary,GF,1651350432,27.93,46,4.17,72,-52.95,5.3833
228,Rawson,AR,1651350433,14.62,60,9.71,46,-65.1023,-43.3002
229,Takoradze,GH,1651350434,27.47,85,3.97,82,-1.7554,4.8845
230,Ceres,US,1651350280,27.18,0,7.72,40,-120.9577,37.5949
231,Dagda,LV,1651350435,2.52,56,0.93,58,27.5372,56.0951
232,Havre-St-Pierre,CA,1651350436,3.0,100,7.72,87,-63.5986,50.2334
233,Ambovombe,MG,1651350436,21.39,3,4.26,75,46.0833,-25.1667
234,Kyshtovka,RU,1651350437,5.3,97,6.43,62,76.6271,56.555
235,Marsh Harbour,BS,1651350438,22.33,100,8.91,83,-77.0636,26.5412
236,Luorong,CN,1651350439,15.14,100,6.08,85,109.6086,24.4058
237,Huarmey,PE,1651350439,22.43,68,5.2,74,-78.1522,-10.0681
238,Port Dickson,MY,1651350440,25.68,100,2.95,81,101.7959,2.5228
239,Calgary,CA,1651349569,14.25,84,2.68,36,-114.0853,51.0501
240,Matara,LK,1651350442,27.21,96,4.5,86,80.5353,5.9485
241,Hasaki,JP,1651350181,7.22,100,4.64,61,140.8333,35.7333
242,San Policarpo,PH,1651350443,26.66,100,4.02,79,125.5072,12.1791
243,Berlevåg,NO,1651350254,-2.0,94,6.51,74,29.0864,70.8578
244,Nicoya,CR,1651350445,30.53,99,2.2,60,-85.452,10.1483
245,Kungurtug,RU,1651350447,4.63,100,0.94,62,97.5228,50.5994
246,Kieta,PG,1651350448,25.78,100,1.41,82,155.6333,-6.2167
247,Piney Green,US,1651350448,25.1,100,4.12,66,-77.3202,34.716
248,Ust-Kuyga,RU,1651350434,-10.29,46,3.55,88,135.6,70.0167
249,Mount Gambier,AU,1651350450,12.95,75,5.14,100,140.7667,-37.8333
250,Kargasok,RU,1651350452,-0.82,99,3.43,76,80.8572,59.0556
251,Shache,CN,1651350453,19.28,100,2.19,17,77.2406,38.4167
252,Upernavik,GL,1651350453,-7.08,74,1.42,71,-56.1549,72.7868
253,Shanhecun,CN,1651350455,2.54,100,5.21,79,127.2,44.7
254,Teknāf,BD,1651350456,24.76,33,2.29,93,92.3058,20.8624
255,Laas,IT,1651350457,6.87,98,1.5,96,10.7002,46.6166
256,Gemeente Wageningen,NL,1651350457,10.53,100,2.06,73,5.6667,51.9667
257,Hammerfest,NO,1651350458,-1.75,75,5.66,86,23.6821,70.6634
258,Pantai Remis,MY,1651350458,26.01,97,1.16,89,100.6288,4.4557
259,Chapecó,BR,1651350459,21.86,75,4.12,88,-52.6183,-27.0964
260,Acaraú,BR,1651350459,27.03,16,3.85,85,-40.12,-2.8856
261,Esperance,AU,1651350460,11.91,0,2.97,69,121.9,-33.8667
262,Papara,BR,1651350177,28.22,59,1.44,89,-38.7273,-3.9839
263,Syamzha,RU,1651350461,-3.77,59,2.12,89,41.0614,60.0158
264,Saint-Pierre,RE,1651350461,24.82,75,1.54,83,55.4781,-21.3393
265,Bilibino,RU,1651350462,-13.68,67,1.12,93,166.4372,68.0546
266,Shumskiy,RU,1651350462,9.86,61,2.37,70,99.1328,54.8318
267,Vogar,IS,1651350463,7.31,75,7.2,76,-22.3874,63.9832
268,Killybegs,IE,1651350464,10.84,100,10.25,91,-8.45,54.6333
269,Kupang,ID,1651350464,25.15,9,2.94,86,123.5833,-10.1667
270,Rognan,NO,1651350465,2.25,98,1.8,76,15.3878,67.0953
271,Banda Aceh,ID,1651350465,27.31,100,3.26,82,95.3222,5.5577
272,Buchanan,LR,1651350466,26.97,73,3.72,83,-10.0467,5.8808
273,Bubaque,GW,1651350466,25.17,64,5.74,72,-15.8333,11.2833
274,Chapais,CA,1651350437,8.88,5,3.49,58,-74.8492,49.7834
275,Alta Floresta,BR,1651350467,33.9,20,2.57,40,-56.0861,-9.8756
276,Nikolskoye,RU,1651350468,4.89,100,3.04,68,30.7861,59.7035
277,Bathsheba,BB,1651350468,29.34,20,6.69,74,-59.5167,13.2167
278,Rongcheng,CN,1651350469,11.38,100,0.84,97,117.8517,30.634
279,Camacha,PT,1651350469,15.68,20,6.17,82,-16.3333,33.0833
280,Santo Antônio do Monte,BR,1651350470,22.41,80,2.14,65,-45.2936,-20.0872
281,Malindi,KE,1651350470,27.76,96,8.28,74,40.1191,-3.2175
282,Kutum,SD,1651350333,27.42,61,3.56,12,24.6667,14.2
283,Miranda,CO,1651350471,29.07,99,0.33,77,-76.2281,3.2499
284,Wagar,SD,1651350471,31.8,0,7.66,37,36.2032,16.1525
285,The Valley,AI,1651350448,27.12,40,3.6,89,-63.0578,18.217
286,Hirara,JP,1651350472,24.06,100,5.88,87,125.2833,24.8
287,Belmonte,BR,1651350472,25.15,20,2.59,78,-38.8828,-15.8631
288,Saint-Augustin,CA,1651350473,3.82,100,7.12,88,-58.6502,51.226
289,Monroe,US,1651350275,15.8,75,5.14,28,-77.6831,43.1501
290,Tura,IN,1651350474,19.94,61,1.5,92,90.2201,25.5198
291,Jiutai,CN,1651350474,2.19,99,3.46,53,125.8328,44.1525
292,Arrondissement du Havre,FR,1651350475,9.63,0,3.09,81,0.3333,49.5833
293,Soyo,AO,1651350475,26.21,99,3.35,86,12.3689,-6.1349
294,Port Augusta,AU,1651350238,13.46,0,1.75,64,137.7667,-32.5
295,Faanui,PF,1651350237,27.39,9,7.03,72,-151.75,-16.4833
296,Khovd,MN,1651350198,10.27,97,3.55,26,91.6419,48.0056
297,Port Blair,IN,1651350477,28.19,61,1.41,72,92.75,11.6667
298,Guarapari,BR,1651350477,25.5,7,2.32,74,-40.4975,-20.6667
299,Leshukonskoye,RU,1651350478,-5.27,81,1.55,94,45.7622,64.8989
300,Srednekolymsk,RU,1651350479,-9.05,83,0.94,88,153.6833,67.45
301,Iralaya,HN,1651350480,28.66,13,4.24,67,-83.2333,15.0
302,Maryville,US,1651350481,27.31,75,5.14,51,-83.9705,35.7565
303,Ambon City,ID,1651350482,27.5,34,0.74,77,128.1814,-3.6954
304,Kaplice,CZ,1651350483,11.0,100,0.3,75,14.4963,48.7385
305,Honiara,SB,1651350484,25.38,75,1.46,86,159.95,-9.4333
306,Biak,ID,1651350485,24.74,97,1.51,86,122.8766,-0.9131
307,Kumul,CN,1651350487,15.66,0,2.28,16,93.45,42.8
308,La Palma,US,1651350488,31.39,20,5.14,53,-118.0467,33.8464
309,Hong Kong,HK,1651350331,25.18,100,5.81,85,114.1577,22.2855
310,Erdemli,TR,1651350490,19.55,62,6.47,84,34.3084,36.605
311,Khomutovo,RU,1651350491,10.34,99,1.56,67,104.4025,52.4658
312,Bjørnevatn,NO,1651350492,-2.81,0,4.12,74,29.9847,69.6672
313,Anloga,GH,1651350492,28.55,22,4.97,74,0.8973,5.7947
314,Udachny,RU,1651350493,-8.64,100,10.2,85,112.4,66.4167
315,Port Elizabeth,ZA,1651350494,15.73,7,1.79,80,25.5701,-33.918
316,Santa Vitória do Palmar,BR,1651350496,14.69,100,2.0,66,-53.3681,-33.5189
317,Terra Santa,BR,1651350496,27.83,88,1.31,88,-56.4869,-2.1042
318,Ereymentau,KZ,1651350497,15.13,65,4.4,53,73.1033,51.6199
319,Beaverlodge,CA,1651350498,5.64,100,3.14,80,-119.4361,55.2166
320,Necochea,AR,1651350498,14.06,8,3.46,43,-58.7368,-38.5473
321,Puerto Carreño,CO,1651350499,24.99,40,2.57,88,-67.4859,6.189
322,Nouadhibou,MR,1651350499,18.99,98,6.69,82,-17.0347,20.931
323,Pisco,PE,1651350308,22.03,0,7.72,64,-76.2167,-13.7
324,Padang,ID,1651350500,25.19,99,2.05,90,100.3543,-0.9492
325,Quatre Cocos,MU,1651350501,25.06,41,4.96,80,57.7625,-20.2078
326,Hofn,IS,1651350501,8.58,16,4.24,83,-15.2082,64.2539
327,Gemeente Stadskanaal,NL,1651350502,8.96,15,0.45,80,6.95,52.9833
328,Nanortalik,GL,1651350502,3.34,98,0.51,84,-45.2371,60.1432
329,Urazovo,RU,1651350503,7.21,9,3.31,68,38.0395,50.0836
330,Sinegor'ye,RU,1651350504,-6.78,33,1.59,91,150.477,62.0788
331,Puerto Quijarro,BO,1651350504,34.96,82,2.2,25,-57.7667,-17.7833
332,Xining,CN,1651350505,0.19,100,1.04,78,101.7667,36.6167
333,Paamiut,GL,1651350505,0.56,77,6.49,93,-49.6678,61.994
334,Sioux Lookout,CA,1651350506,13.04,100,4.63,28,-91.917,50.1001
335,Waitati,NZ,1651350506,13.78,90,7.38,73,170.5667,-45.75
336,Adrar,MR,1651350507,28.48,0,3.43,10,-10.0711,20.5022
337,Atar,MR,1651350508,30.51,5,3.42,9,-13.0499,20.5169
338,Aklavik,CA,1651350508,8.0,40,2.57,49,-135.0107,68.2191
339,Przhevalskoye,RU,1651350335,1.86,58,1.34,74,31.8482,55.5093
340,Kailua,US,1651350237,26.99,75,5.14,75,-157.7394,21.4022
341,Viranşehir,TR,1651350509,16.75,100,4.19,78,39.7631,37.2353
342,Bagdarin,RU,1651350510,-0.84,100,1.73,92,113.6,54.4333
343,Isangel,VU,1651350510,25.88,100,4.39,90,169.2667,-19.55
344,Bowen,AU,1651350511,21.07,5,4.44,90,148.2333,-20.0167
345,Oktyabr'skoye,RU,1651350511,14.08,17,5.0,87,44.7417,43.0645
346,Port-Gentil,GA,1651350512,25.98,20,1.03,89,8.7815,-0.7193
347,Praia da Vitória,PT,1651350512,19.14,40,1.5,72,-27.0667,38.7333
348,Rosarito,MX,1651350476,26.46,10,3.43,68,-117.0333,32.3333
349,Port Lincoln,AU,1651350260,14.72,22,3.72,84,135.8667,-34.7333
350,Bhaderwah,IN,1651350513,14.6,95,0.99,77,75.7186,32.9784
351,Yilan,TW,1651350514,21.87,100,2.17,99,121.753,24.757
352,Palauig,PH,1651350514,27.36,100,0.85,74,119.9045,15.435
353,Amazar,RU,1651350515,-2.71,100,0.89,61,120.875,53.858
354,Korla,CN,1651350515,14.73,5,1.64,29,86.1469,41.7597
355,Ende,ID,1651350516,25.22,100,0.86,89,121.6623,-8.8432
356,San Rafael,AR,1651350516,19.79,0,2.54,27,-68.3301,-34.6177
357,Saint Anthony,US,1651350517,11.72,100,6.69,90,-93.218,45.0205
358,Tsil'na,RU,1651350518,4.75,41,3.0,94,48.1414,54.5953
359,Córdoba,AR,1651350472,20.98,0,3.09,27,-64.1811,-31.4135
360,Odienné,CI,1651350518,28.78,79,0.64,50,-7.5692,9.51
361,Mēga,ET,1651350519,15.94,35,2.22,87,38.3,4.05
362,Key Largo,US,1651350251,29.0,14,5.1,53,-80.4473,25.0865
363,Mugumu,TZ,1651350519,16.18,98,0.87,91,34.7,-1.85
364,Tiksi,RU,1651350520,1.25,100,7.67,89,128.8694,71.6872
365,Smalininkai,LT,1651350520,5.06,7,2.76,67,22.5793,55.0735
366,Kenai,US,1651350521,7.24,0,5.66,56,-151.2583,60.5544
367,Fairbanks,US,1651350521,12.27,0,4.12,35,-147.7164,64.8378
368,Evensk,RU,1651350522,-0.38,13,3.77,65,159.2333,61.95
369,Vila Velha,BR,1651350522,26.97,20,3.6,83,-40.2925,-20.3297
370,Gazli,UZ,1651350523,27.25,100,6.13,18,63.45,40.1333
371,Tiarei,PF,1651350523,28.01,38,6.88,75,-149.3333,-17.5333
372,Boguchany,RU,1651350524,8.71,100,0.48,98,97.4531,58.3814
373,Honningsvåg,NO,1651350524,-2.14,100,2.57,86,25.9704,70.9821
374,Perevolotskiy,RU,1651350525,7.13,3,2.25,59,54.1938,51.8763
375,Coahuayana Viejo,MX,1651350525,31.43,45,4.04,39,-103.6833,18.7333
376,Curvelo,BR,1651350526,27.66,22,4.09,32,-44.4308,-18.7564
377,Rostusa,MK,1651350526,10.41,52,1.52,86,20.6,41.61
378,Shubarshi,KZ,1651350527,14.4,100,5.38,65,57.1869,48.5872
379,Chifeng,CN,1651350528,6.8,98,2.2,22,118.9636,42.2683
380,Batticaloa,LK,1651350528,27.84,50,2.36,80,81.6924,7.7102
381,Beroroha,MG,1651350529,19.5,0,0.8,70,45.1667,-21.6667
382,Bouca,CF,1651350529,24.15,61,2.05,72,18.2733,6.5105
383,Basco,PH,1651350530,27.49,15,5.06,78,121.9702,20.4487
384,Narsaq,GL,1651350532,13.12,20,1.16,60,-46.05,60.9167
385,Severo-Kuril'sk,RU,1651350412,1.34,100,3.17,82,156.125,50.6789
386,Gundlupēt,IN,1651350534,25.43,90,2.52,69,76.6833,11.8
387,Inuvik,CA,1651350536,10.48,40,3.6,37,-133.7218,68.3499
388,Scalea,IT,1651350537,15.44,42,1.34,65,15.7956,39.813
389,Deputatsky,RU,1651350538,-13.9,24,1.27,86,139.9,69.3
390,Kloulklubed,PW,1651350538,23.28,96,2.09,74,134.2556,7.0419
391,Khatanga,RU,1651350503,-15.89,92,3.37,99,102.5,71.9667
392,Mikhaylovka,RU,1651350539,8.77,96,3.35,58,43.2379,50.06
393,Nānākuli,US,1651350540,26.97,0,3.6,59,-158.1547,21.3906
394,Salalah,OM,1651350540,30.05,40,2.57,79,54.0924,17.0151
395,Mogadishu,SO,1651350541,28.49,100,5.48,77,45.3438,2.0371
396,Hostotipaquillo,MX,1651350541,34.47,29,1.68,4,-104.0667,21.0667
397,Acajutla,SV,1651350542,30.34,100,3.41,60,-89.8275,13.5928
398,Morón,AR,1651350542,14.98,97,0.73,50,-58.6198,-34.6534
399,Mastic Beach,US,1651350543,18.91,0,5.66,27,-72.8521,40.7668
400,Lerwick,GB,1651350543,7.0,100,6.46,76,-1.1494,60.1545
401,Farmington,US,1651350500,22.33,0,4.63,10,-108.2187,36.7281
402,Uzhur,RU,1651350544,12.55,100,3.3,52,89.8339,55.3036
403,Orlik,RU,1651350544,2.43,40,0.97,74,99.825,52.5178
404,Ketchikan,US,1651350391,12.26,0,4.12,50,-131.6461,55.3422
405,Assiut,EG,1651350545,29.1,0,5.66,17,31.1837,27.181
406,Ahipara,NZ,1651350546,14.82,9,2.87,87,173.1667,-35.1667
407,Rosário do Sul,BR,1651350546,15.42,100,2.36,77,-54.9142,-30.2583
408,Amposta,ES,1651350547,17.9,75,3.7,65,0.581,40.7131
409,Mahina,PF,1651350547,27.87,40,3.09,65,-149.489,-17.5065
410,Ous,RU,1651350432,0.02,99,2.91,74,61.5186,60.9058
411,Seoul,KR,1651349897,8.69,0,0.0,87,126.9778,37.5683
412,Ballina,AU,1651350548,17.98,100,3.6,96,153.5667,-28.8667
413,Hambantota,LK,1651350549,27.36,100,6.39,85,81.1185,6.1241
414,Eureka,US,1651350385,15.41,98,1.79,79,-124.1637,40.8021
415,Mandalgovi,MN,1651350550,7.42,62,3.66,33,106.2708,45.7625
416,High Level,CA,1651350509,6.06,75,2.57,56,-117.136,58.5169
417,Beloha,MG,1651350550,20.17,7,2.9,80,45.05,-25.1667
418,Blankenberge,BE,1651350551,8.86,6,0.45,60,3.1323,51.3131
419,Marsá Maţrūḩ,EG,1651350551,19.11,0,3.09,68,27.2453,31.3525
420,Port Hawkesbury,CA,1651350552,8.57,100,6.69,96,-61.3485,45.6169
421,Bratsk,RU,1651350553,13.27,80,2.0,95,101.6142,56.1325
422,Jackson,US,1651350324,16.51,75,7.72,62,-122.8345,42.4165
423,Margherita,IN,1651350553,21.65,100,1.01,77,95.6833,27.2833
424,Wote,KE,1651350554,19.24,100,1.27,85,37.6288,-1.7808
425,Cururupu,BR,1651350554,26.64,88,1.91,84,-44.8683,-1.8283
426,Santa Rosa,PH,1651350555,27.99,100,3.3,77,121.1114,14.3122
427,Sunrise Manor,US,1651350555,30.48,0,2.57,9,-115.0731,36.2111
428,Dudinka,RU,1651350556,-7.43,100,7.07,93,86.1778,69.4058
429,Saint-Leu,RE,1651350556,24.48,33,2.73,81,55.2833,-21.15
430,Iquique,CL,1651350557,19.02,10,2.99,72,-70.1431,-20.2208
431,Kanniyākumāri,IN,1651350557,28.53,43,8.16,83,77.5667,8.0833
432,Souillac,MU,1651350423,25.21,40,3.6,83,57.5167,-20.5167
433,Beringovskiy,RU,1651350558,-3.97,100,7.96,92,179.3167,63.05
434,Menongue,AO,1651350559,16.22,7,1.78,57,17.691,-14.6585
435,Boyolangu,ID,1651350559,23.85,100,1.9,92,111.8935,-8.1181
436,Mehamn,NO,1651350560,-2.03,75,4.12,69,27.8492,71.0357
437,Churapcha,RU,1651350561,-5.3,18,1.84,92,132.4325,62.0025
438,Khlung,TH,1651350561,30.06,36,0.51,100,102.2214,12.4547
439,Agirish,RU,1651350562,-0.33,65,4.04,73,63.0231,61.9247
440,Omaruru,NA,1651350562,17.85,0,2.54,47,15.9333,-21.4333
441,City of San Pedro,PH,1651350563,27.57,20,2.57,76,121.0167,14.35
442,Mt. Pleasant,US,1651350433,27.32,0,5.14,52,-79.8626,32.7941
443,Kargopol',RU,1651350564,-1.45,100,2.47,81,38.9456,61.5071
444,Gribanovskiy,RU,1651350565,5.7,28,3.44,73,41.9764,51.4579
445,Gadsden,US,1651349755,28.62,100,2.06,55,-86.0066,34.0143
446,Leningradskiy,RU,1651350565,-12.42,71,1.97,91,178.4167,69.3833
447,Santa Cruz de La Palma,ES,1651350566,20.08,20,6.69,77,-17.7642,28.6835
448,Yangi Marg`ilon,UZ,1651350567,20.4,49,1.03,60,71.7189,40.4272
449,São Miguel do Araguaia,BR,1651350568,30.36,5,1.72,43,-50.1628,-13.275
450,Salem,IN,1651350514,29.06,37,2.13,64,78.1667,11.65
451,Kruisfontein,ZA,1651350568,11.6,7,3.1,86,24.7314,-34.0033
452,Nabire,ID,1651350308,23.76,64,1.82,92,135.4833,-3.3667
453,Yining,CN,1651350569,13.31,100,0.9,96,114.5636,29.0361
454,Devon,GB,1651350570,10.29,100,0.99,74,-3.75,50.75
455,Okahandja,NA,1651350570,17.49,1,2.95,39,16.9167,-21.9833
456,Carutapera,BR,1651350571,25.73,34,2.63,91,-46.02,-1.195
457,Podor,MR,1651350572,34.52,3,7.23,13,-14.9587,16.6527
458,Roebourne,AU,1651350573,24.2,85,4.95,54,117.1333,-20.7833
459,Chambersburg,US,1651350525,20.23,100,0.89,26,-77.6611,39.9376
460,Prattville,US,1651350574,25.92,100,2.57,89,-86.4597,32.464
461,Waipawa,NZ,1651350575,9.41,65,3.76,82,175.5153,-41.4122
462,Skibbereen,IE,1651350575,11.73,100,3.12,87,-9.2667,51.55
463,Huambo,AO,1651350576,15.42,79,1.67,64,15.7392,-12.7761
464,Hualmay,PE,1651350576,21.63,71,4.41,75,-77.6139,-11.0964
465,Athabasca,CA,1651350577,9.23,99,2.26,49,-113.2854,54.7169
466,Mizdah,LY,1651350578,17.37,29,10.21,47,12.9801,31.4451
467,Riyadh,SA,1651350409,24.08,0,3.4,24,46.7219,24.6877
468,Karpathos,GR,1651350578,16.98,3,16.46,77,27.2132,35.507
469,Hamilton,US,1651350579,22.95,0,5.66,72,-84.5333,39.1834
470,Kirakira,SB,1651350579,26.8,100,0.91,80,161.9205,-10.4544
471,Calvià,ES,1651350580,18.29,86,1.98,59,2.5062,39.5657
472,Fukuechō,JP,1651350580,15.42,100,7.91,71,128.8419,32.6881
473,Barcelona,ES,1651350581,18.63,20,1.54,78,2.159,41.3888
474,Ajdabiya,LY,1651350581,22.62,89,2.93,43,20.2263,30.7554
475,Hay River,CA,1651350582,0.98,0,6.69,74,-115.7999,60.8156
476,Manavālakurichi,IN,1651350582,28.12,38,5.94,84,77.3,8.1333
477,Gao,ML,1651350583,33.17,47,3.59,10,1.637,16.6362
478,Shaunavon,CA,1651350583,12.88,100,4.29,33,-108.4181,49.6501
479,Chui,UY,1651350584,14.71,100,2.14,65,-53.4616,-33.6971
480,Tual,ID,1651350584,28.74,99,6.95,74,132.75,-5.6667
481,Sambava,MG,1651350585,24.33,20,4.12,89,50.1667,-14.2667
482,Rincon,US,1651350450,25.98,40,4.63,41,-81.2354,32.296
483,La Plata,AR,1651350586,13.9,100,0.92,61,-57.9545,-34.9215
484,Ushtobe,KZ,1651350586,19.3,92,2.71,28,77.9838,45.2514
485,Mopti,ML,1651350586,35.78,37,3.6,15,-4.0,14.6667
486,Florø,NO,1651350587,6.98,100,3.6,81,5.0328,61.5996
487,Elliot Lake,CA,1651350587,13.42,100,4.26,35,-82.6331,46.3834
488,Syracuse,IT,1651350501,16.65,100,4.66,66,15.2792,37.0881
489,Lebedinyy,RU,1651350588,-5.29,10,3.98,69,125.5167,58.5167
490,Salé,MA,1651350589,18.38,3,2.57,63,-6.8166,34.0389
491,Ikryanoye,RU,1651350589,11.99,2,3.56,61,47.7308,46.0932
492,Sola,VU,1651350419,27.51,99,2.08,71,167.55,-13.8833
493,Dawlatabad,AF,1651350590,27.29,100,2.29,29,64.9053,36.4141
494,Ulety,RU,1651350590,3.45,17,1.68,93,112.4849,51.3572
495,Invermere,CA,1651350591,11.55,100,2.08,43,-116.0354,50.5167
496,Calama,CL,1651350591,22.27,0,9.77,9,-68.9333,-22.4667
497,Panabá,MX,1651350592,30.62,100,3.37,50,-88.2667,21.2833
498,Cascais,PT,1651350592,21.64,0,7.72,50,-9.4215,38.6979
499,Linares,CL,1651350593,16.77,3,3.99,51,-71.6,-35.85
500,Mlonggo,ID,1651350593,26.35,100,2.16,84,110.7,-6.5333
501,Nyurba,RU,1651350594,1.63,100,3.04,99,118.3319,63.2842
502,San Vicente de Cañete,PE,1651350594,22.36,48,3.53,72,-76.3835,-13.0751
503,Egvekinot,RU,1651350595,-9.3,100,4.92,80,-179.1667,66.3167
504,Manggar,ID,1651350596,26.29,88,1.23,85,108.2667,-2.8833
505,Southbridge,US,1651350596,16.48,100,1.34,35,-72.0334,42.0751
506,Kualakapuas,ID,1651350597,23.24,92,0.76,98,114.3876,-3.0091
507,Tawang Town,IN,1651350597,8.18,100,0.66,97,91.8667,27.5833
508,Te Anau,NZ,1651350598,12.88,100,4.0,86,167.7167,-45.4167
509,Malé,MV,1651350598,29.97,75,7.2,79,73.5089,4.1748
510,Del Rio,US,1651350412,32.06,0,4.63,49,-100.8968,29.3627
511,Melfi,IT,1651350599,10.83,1,1.04,75,15.6514,40.9965
512,Pevek,RU,1651350599,-16.74,100,2.21,98,170.3133,69.7008
513,Poum,NC,1651350578,24.43,2,2.97,78,164.0167,-20.2333
514,Pinega,RU,1651350600,-4.5,27,2.22,91,43.3936,64.7001
515,La Ronge,CA,1651350506,5.14,75,4.12,70,-105.2842,55.1001
516,Tigil',RU,1651350336,-2.88,94,0.8,96,158.6667,57.8
517,Mīnāb,IR,1651350601,28.18,0,0.51,51,57.0801,27.1467
518,Gondanglegi,ID,1651350602,24.51,100,0.82,88,112.0132,-7.7479
519,Dahegām,IN,1651350602,31.87,0,4.77,44,72.8167,23.1667
520,Thunder Bay,CA,1651350318,7.38,100,9.26,53,-89.3168,48.4001
521,Marabu,MY,1651350603,24.08,20,1.54,100,114.0089,4.4148
522,Newcastle,AU,1651350604,15.36,100,3.6,85,151.7765,-32.9272
523,Bonavista,CA,1651350604,2.1,100,4.04,97,-53.1147,48.6499
524,Kahului,US,1651350605,26.01,40,8.23,71,-156.47,20.8947
525,Hinganghāt,IN,1651350605,34.51,42,2.95,16,78.8333,20.5667
526,Lavrentiya,RU,1651350421,-3.41,100,6.82,87,-171.0,65.5833
527,Talcahuano,CL,1651350606,14.82,0,5.66,55,-73.1167,-36.7167
528,Mossamedes,AO,1651350607,23.79,31,2.34,82,12.1522,-15.1961
529,Tashtagol,RU,1651350607,9.48,75,1.93,72,87.8894,52.7657
530,Salinópolis,BR,1651350608,25.56,65,3.63,88,-47.3561,-0.6136
531,Foumban,CM,1651350608,18.52,100,1.37,91,10.9001,5.7291
532,Bonthe,SL,1651350609,27.32,35,4.13,79,-12.505,7.5264
533,Manado,ID,1651350609,25.43,40,1.17,94,124.8455,1.487
534,Mwense,ZM,1651350610,20.59,92,1.63,73,28.698,-10.3845
535,Laguna de Duero,ES,1651350610,18.0,0,1.03,68,-4.7233,41.5815
536,Rancho Palos Verdes,US,1651350611,28.56,0,7.2,73,-118.387,33.7445
537,Vagay,RU,1651350612,1.08,100,1.96,66,69.0217,57.9375
538,Paracuru,BR,1651350612,28.39,13,3.42,88,-39.0306,-3.41
539,Davila,PH,1651350613,27.49,36,1.35,78,120.5763,18.4726
540,Makakilo City,US,1651350613,26.18,0,7.72,60,-158.0858,21.3469
541,Vvedenskoye,RU,1651350614,5.39,100,2.86,45,65.0847,55.4753
542,Empório,GR,1651350614,9.2,100,0.61,94,21.55,40.4833
543,Charter Township of Clinton,US,1651350615,16.09,100,5.66,38,-82.9199,42.587
544,Waingapu,ID,1651350615,25.33,84,2.8,86,120.2641,-9.6567
545,Senj,HR,1651350521,18.37,5,3.51,80,14.9058,44.9894
546,Diego de Almagro,CL,1651350616,22.91,0,4.13,30,-70.05,-26.3667
547,Vestmanna,FO,1651350617,4.51,20,3.09,93,-7.1664,62.1564
548,Kununurra,AU,1651350617,26.99,40,2.57,89,128.7333,-15.7667
549,São Félix do Xingu,BR,1651350618,24.67,85,0.88,92,-51.995,-6.6447
550,Biltine,TD,1651350618,31.74,99,0.75,20,20.9167,14.5333
551,Asekeyevo,RU,1651350619,7.4,52,1.98,61,52.7972,53.5742
552,Tamworth,GB,1651350619,14.18,100,1.66,59,-1.6959,52.634
553,Kamaishi,JP,1651350620,7.86,100,4.82,75,141.8833,39.2667
554,Young,UY,1651350620,11.95,100,2.48,79,-57.6333,-32.6833
555,Yambio,SS,1651350621,19.56,94,2.16,87,28.3955,4.5721
556,Cabedelo,BR,1651350334,27.37,100,6.87,75,-34.8339,-6.9811
